{"version": 0.6, "generator": "Overpass API 0.7.62.8 e802775f", "osm3s": {"timestamp_osm_base": "2025-09-29T05:43:08Z", "copyright": "The data included in this document is from www.openstreetmap.org. The data is made available under ODbL."}, "elements": [{"type": "node", "id": 5584592878, "lat": 23.1090545, "lon": 113.3188181}, {"type": "node", "id": 5584592879, "lat": 23.1091427, "lon": 113.3188207}, {"type": "node", "id": 5584592880, "lat": 23.1090502, "lon": 113.3194551}, {"type": "node", "id": 5584592881, "lat": 23.1089663, "lon": 113.3194832}, {"type": "node", "id": 5584592882, "lat": 23.109266, "lon": 113.3188824}, {"type": "node", "id": 5584592883, "lat": 23.1093055, "lon": 113.3189508}, {"type": "node", "id": 5584592884, "lat": 23.1093246, "lon": 113.3190267}, {"type": "node", "id": 5584592885, "lat": 23.1093198, "lon": 113.3191178}, {"type": "node", "id": 5584592886, "lat": 23.1092919, "lon": 113.3191989}, {"type": "node", "id": 5584592887, "lat": 23.1092512, "lon": 113.3192807}, {"type": "node", "id": 5584592888, "lat": 23.1091957, "lon": 113.3193491}, {"type": "node", "id": 5584592889, "lat": 23.1091303, "lon": 113.3194081}, {"type": "node", "id": 5584592890, "lat": 23.1088177, "lon": 113.3194554}, {"type": "node", "id": 5584592891, "lat": 23.1087239, "lon": 113.3193502}, {"type": "node", "id": 5584592892, "lat": 23.1087098, "lon": 113.3191889}, {"type": "node", "id": 5584592893, "lat": 23.1087654, "lon": 113.3190227}, {"type": "node", "id": 5584592894, "lat": 23.1087961, "lon": 113.3189737}, {"type": "node", "id": 5584592895, "lat": 23.1089216, "lon": 113.3188608}, {"type": "node", "id": 5584592896, "lat": 23.1089788, "lon": 113.3188373}, {"type": "node", "id": 6566048168, "lat": 23.1092105, "lon": 113.3188435}, {"type": "node", "id": 6566048169, "lat": 23.1088709, "lon": 113.3188928}, {"type": "node", "id": 6566048170, "lat": 23.108831, "lon": 113.3189302}, {"type": "node", "id": 6566048171, "lat": 23.1087305, "lon": 113.319106}, {"type": "node", "id": 6566048172, "lat": 23.1087079, "lon": 113.3192693}, {"type": "node", "id": 6566048173, "lat": 23.1087653, "lon": 113.3194112}, {"type": "node", "id": 6566048174, "lat": 23.1088898, "lon": 113.3194825}, {"type": "way", "id": 584204634, "nodes": [5584592890, 6566048173, 5584592891, 6566048172, 5584592892, 6566048171, 5584592893, 5584592894, 6566048170, 6566048169, 5584592895, 5584592896, 5584592878, 5584592879, 6566048168, 5584592882, 5584592883, 5584592884, 5584592885, 5584592886, 5584592887, 5584592888, 5584592889, 5584592880, 5584592881, 6566048174, 5584592890], "tags": {"addr:city": "\u5e7f\u5dde\u5e02", "addr:country": "CN", "addr:district": "\u6d77\u73e0\u533a", "addr:street": "\u9605\u6c5f\u897f\u8def", "alt_name": "\u5e7f\u5dde\u65b0\u7535\u89c6\u5854;\u5c0f\u86ee\u8170", "alt_name:ja": "\u5e83\u5dde\u30bf\u30ef\u30fc", "alt_name:zh-Hant": "\u5ee3\u5dde\u65b0\u96fb\u8996\u5854;\u5c0f\u883b\u8170", "building": "yes", "building:levels": "37", "building:levels:underground": "2", "communication:microwave": "yes", "communication:radio": "yes", "communication:television": "yes", "layer": "1", "man_made": "tower", "name": "\u5e7f\u5dde\u5854", "name:ar": "\u0628\u0631\u062c \u0643\u0627\u0646\u062a\u0648\u0646", "name:en": "Canton Tower", "name:es": "Torre de televisi\u00f3n de Cant\u00f3n", "name:fr": "Canton Tour", "name:hi": "\u0915\u0947\u0928\u094d\u0924\u094b\u0928 \u091f\u0935\u0930", "name:id": "Menara Kanton", "name:it": "Torre di Canton", "name:ja": "\u5e83\u5dde\u5854", "name:ja-Kana": "\u3053\u3046\u3057\u3085\u3046\u3068\u3046", "name:ko": "\uad11\uc800\uc6b0 \ud0c0\uc6cc", "name:ml": "\u0d15\u0d3e\u0d7b\u0d1f\u0d7a \u0d1f\u0d35\u0d7c", "name:ms": "Menara Canton", "name:pt": "Torre de televis\u00e3o de Cant\u00e3o", "name:ru": "\u0422\u0435\u043b\u0435\u0431\u0430\u0448\u043d\u044f \u0413\u0443\u0430\u043d\u0447\u0436\u043e\u0443", "name:vi": "Th\u00e1p Qu\u1ea3ng Ch\u00e2u", "name:yue": "\u5e7f\u5dde\u5854", "name:yue-Latn": "Gwongzau Taap", "name:zh": "\u5e7f\u5dde\u5854", "name:zh-Hans": "\u5e7f\u5dde\u5854", "name:zh-Hant": "\u5ee3\u5dde\u5854", "name:zh-Latn-pinyin": "Gu\u01cengzh\u014du t\u01ce", "old_name": "\u5e7f\u5dde\u7535\u89c6\u89c2\u5149\u5854", "old_name:en": "Guangzhou TV & Sightseeing Tower", "start_date": "2010-9-28", "tower:construction": "freestanding", "tower:type": "communication", "website": "https://www.cantontower.com", "wikidata": "Q168400", "wikimedia_commons": "Category:Canton Tower", "wikipedia": "zh:\u5e7f\u5dde\u5854", "wikipedia:en": "Canton Tower"}}]}